City_ID,City,Lat,Lng,Max Temp,Humidity,Cloudiness,Wind Speed,Country,Date
0,ushuaia,-54.8,-68.3,0.8100000000000023,64,75,3.09,AR,1690331328
1,port blair,11.6667,92.75,27.75,83,100,6.65,IN,1690331402
2,wailua homesteads,22.0669,-159.378,29.439999999999998,77,0,7.72,US,1690331460
3,altinekin,38.3078,32.8686,18.310000000000002,42,0,0.38,TR,1690331461
4,atafu village,-8.5421,-172.5159,28.879999999999995,71,6,7.95,TK,1690331441
5,uturoa,-16.7333,-151.4333,26.870000000000005,81,23,7.07,PF,1690331461
6,verneuil-sur-avre,48.7395,0.9273,10.78000000000003,89,10,2.8,FR,1690331461
7,cabedelo,-6.9811,-34.8339,23.370000000000005,82,72,5.17,BR,1690331461
8,edinburgh of the seven seas,-37.0676,-12.3116,11.230000000000018,61,100,9.06,SH,1690331461
9,georgetown,5.4112,100.3354,27.960000000000036,93,20,1.03,MY,1690331306
10,kargasok,59.0556,80.8572,17.220000000000027,86,65,2.58,RU,1690331462
11,morant bay,17.8815,-76.4093,29.79000000000002,82,17,2.81,JM,1690331462
12,badger,64.8,-147.5333,27.99000000000001,51,75,4.12,US,1690331425
13,adamstown,-25.066,-130.1015,23.260000000000048,82,100,16.8,PN,1690331462
14,grytviken,-54.2811,-36.5092,-3.2999999999999545,84,74,4.08,GS,1690331462
15,vila velha,-20.3297,-40.2925,20.970000000000027,98,100,2.06,BR,1690331462
16,tabou,4.423,-7.3528,24.32000000000005,91,100,3.29,CI,1690331462
17,waitangi,-43.9535,-176.5597,9.340000000000032,98,100,0.89,NZ,1690331463
18,springs,-26.25,28.4,9.260000000000048,95,100,3.67,ZA,1690331463
19,tolanaro,-25.0319,46.9987,20.04000000000002,68,40,5.14,MG,1690331463
20,namibe,-15.1961,12.1522,15.680000000000007,90,10,3.81,AO,1690331463
21,bethel,41.3712,-73.414,21.05000000000001,88,75,0.0,US,1690331346
22,ilulissat,69.2167,-51.1,3.0100000000000477,100,100,2.57,GL,1690331464
23,kafanchan,9.5833,8.3,19.99000000000001,97,66,0.8,NG,1690331464
24,longyearbyen,78.2186,15.6401,7.32000000000005,78,100,1.87,SJ,1690331464
25,westport,41.1415,-73.3579,22.02000000000004,89,0,3.09,US,1690331408
26,bairnsdale,-37.8333,147.6167,10.03000000000003,90,6,1.31,AU,1690331464
27,saldanha,-33.0117,17.9442,13.300000000000011,60,100,2.92,ZA,1690331464
28,maughold,54.2988,-4.3184,13.410000000000025,87,37,3.82,IM,1690331464
29,callao,-12.0667,-77.15,20.400000000000034,82,100,5.14,PE,1690331376
30,aroma,15.8167,36.1333,27.510000000000048,65,100,10.15,SD,1690331465
31,usogorsk,63.4106,48.6872,12.670000000000016,97,96,1.27,RU,1690331465
32,pingliang,35.5392,106.6861,23.439999999999998,58,100,2.74,CN,1690331465
33,alo,7.4178,6.7371,23.730000000000018,96,100,1.2,NG,1690331465
34,stanley,54.868,-1.6985,12.379999999999995,94,75,1.54,GB,1690331465
35,antsiranana,-12.2787,49.2917,21.29000000000002,84,5,4.89,MG,1690331465
36,viedma,-40.8135,-62.9967,8.830000000000041,74,69,5.72,AR,1690331459
37,villa gesell,-37.2639,-56.973,12.25,91,100,3.83,AR,1690331466
38,codrington,-38.2667,141.9667,11.270000000000039,75,100,3.56,AU,1690331466
39,yellowknife,62.456,-114.3525,25.310000000000002,25,75,8.05,CA,1690331276
40,olonkinbyen,70.9221,-8.7187,5.520000000000039,86,100,3.9,SJ,1690331466
41,albany,42.6001,-73.9662,22.960000000000036,85,99,0.45,US,1690331213
42,aktanysh,55.7216,54.0829,16.160000000000025,80,9,2.06,RU,1690331466
43,lompoc,34.6391,-120.4579,35.01000000000005,68,20,3.6,US,1690331466
44,arraial do cabo,-22.9661,-42.0278,21.439999999999998,91,0,10.44,BR,1690331466
45,sarkand,45.41,79.9186,28.05000000000001,15,2,2.06,KZ,1690331467
46,igarka,67.4667,86.5833,20.450000000000045,63,1,3.5,RU,1690331467
47,saint-pierre,-21.3393,55.4781,19.82000000000005,73,75,3.6,RE,1690331467
48,port-aux-francais,-49.35,70.2167,3.5600000000000023,84,100,11.9,TF,1690331467
49,iskateley,67.6803,53.1512,15.960000000000036,77,41,1.8,RU,1690331467
50,caleta de carquin,-11.0925,-77.6267,20.0,82,15,5.03,PE,1690331467
51,aasiaat,68.7098,-52.8699,3.340000000000032,93,84,1.9,GL,1690331468
52,isafjordur,66.0755,-23.124,6.420000000000016,83,76,3.74,IS,1690331468
53,port elizabeth,-33.918,25.5701,6.160000000000025,81,0,1.03,ZA,1690331468
54,la passe,45.5549,-0.8967,16.660000000000025,79,67,2.34,FR,1690331468
55,whitehorse,60.7161,-135.0538,24.450000000000045,45,75,0.89,CA,1690331468
56,sao gabriel da cachoeira,-0.1303,-67.0892,23.379999999999995,97,91,1.17,BR,1690331468
57,merritt,50.1123,-120.7942,17.400000000000034,49,97,4.3,CA,1690331468
58,moraleja,40.0162,-6.6977,18.860000000000014,48,0,1.82,ES,1690331468
59,borogontsy,62.6683,131.1683,20.590000000000032,53,23,2.7,RU,1690331469
60,port mathurin,-19.6833,63.4167,23.230000000000018,78,12,6.67,MU,1690331426
61,narva,59.3772,28.1903,14.720000000000027,98,100,2.21,EE,1690331469
62,thohoyandou,-22.9456,30.485,14.830000000000041,82,99,0.82,ZA,1690331469
63,bilibino,68.0546,166.4372,10.860000000000014,93,100,1.12,RU,1690331469
64,puerto natales,-51.7236,-72.4875,-1.7899999999999636,90,83,2.22,CL,1690331469
65,stettler,52.3168,-112.7186,19.860000000000014,52,84,2.57,CA,1690331469
66,kontagora,10.3999,5.4695,23.33000000000004,86,12,1.7,NG,1690331469
67,invercargill,-46.4,168.35,8.310000000000002,74,73,5.98,NZ,1690331461
68,margaret river,-33.95,115.0667,11.460000000000036,76,100,8.16,AU,1690331448
69,eldorado,-23.7869,-54.2836,19.5,53,0,2.95,BR,1690331470
70,tamandare,-8.7597,-35.1047,23.510000000000048,85,73,3.78,BR,1690331470
71,talnakh,69.4865,88.3972,17.340000000000032,55,0,0.47,RU,1690331470
72,nova sintra,14.8667,-24.7167,22.480000000000018,87,71,6.52,CV,1690331470
73,alesund,62.4723,6.1549,14.629999999999995,93,75,3.6,NO,1690331470
74,chul'man,56.8479,124.9104,21.879999999999995,64,19,0.45,RU,1690331470
75,kapuskasing,49.4169,-82.4331,25.05000000000001,46,75,5.14,CA,1690331470
76,turbo,8.0937,-76.7269,26.150000000000034,91,100,2.76,CO,1690331436
77,petrolia,42.8668,-82.1498,26.900000000000034,61,0,2.57,CA,1690331470
78,saipan,15.1355,145.701,27.58000000000004,100,100,4.63,MP,1690331198
79,anka,12.1138,5.9243,25.879999999999995,75,100,3.05,NG,1690331471
80,rabaul,-4.1967,152.1721,29.0,67,99,7.25,PG,1690331471
81,lerwick,60.1545,-1.1494,11.0,75,100,8.35,GB,1690331471
82,panama city beach,30.1766,-85.8055,31.07000000000005,71,20,2.57,US,1690331179
83,fuling,29.7022,107.3919,25.930000000000007,90,100,0.97,CN,1690331471
84,sitka,57.0531,-135.33,16.939999999999998,77,100,3.09,US,1690331471
85,kiruna,67.8557,20.2251,11.510000000000048,94,100,0.0,SE,1690331471
86,motygino,58.1831,94.7592,16.870000000000005,97,100,0.44,RU,1690331471
87,ribeira grande,38.5167,-28.7,20.99000000000001,85,7,1.79,PT,1690331438
88,papatowai,-46.5619,169.4708,7.770000000000039,75,29,5.37,NZ,1690331472
89,iqaluit,63.7506,-68.5145,5.850000000000023,86,100,2.57,CA,1690331212
90,petukhovo,55.0692,67.9019,18.090000000000032,72,99,0.63,RU,1690331472
91,volda,62.1476,6.0741,14.490000000000009,94,75,0.0,NO,1690331472
92,montrose,38.4166,-108.2673,26.960000000000036,20,94,2.29,US,1690331472
93,hermanus,-34.4187,19.2345,9.330000000000041,58,85,2.68,ZA,1690331472
94,ketchikan,55.3422,-131.6461,18.260000000000048,72,75,5.14,US,1690331197
95,anadyr,64.75,177.4833,13.28000000000003,87,100,4.0,RU,1690331472
96,ust-nera,64.5667,143.2,19.54000000000002,56,53,1.48,RU,1690331446
97,rurrenabaque,-14.4413,-67.5278,22.470000000000027,77,0,0.75,BO,1690331472
98,maceio,-9.6658,-35.7353,21.689999999999998,94,0,0.51,BR,1690331472
99,sitangkai,4.6628,119.3928,28.390000000000043,80,23,8.44,PH,1690331472
100,oliver,49.1831,-119.5524,24.950000000000045,27,22,0.51,CA,1690331451
101,dibba al-hisn,25.6196,56.2729,34.10000000000002,84,98,3.18,AE,1690331473
102,tiksi,71.6872,128.8694,5.090000000000032,80,95,3.63,RU,1690331473
103,aykhal,66.0,111.5,16.629999999999995,68,100,5.35,RU,1690331473
104,sinabang,2.4803,96.3801,26.950000000000045,82,40,1.03,ID,1690331473
105,st. john's,47.5649,-52.7093,17.660000000000025,94,75,2.06,CA,1690331310
106,sandnessjoen,66.0217,12.6316,15.29000000000002,76,100,3.92,NO,1690331473
107,port lincoln,-34.7333,135.8667,13.900000000000034,57,0,4.48,AU,1690331473
108,markovo,57.3206,107.0881,19.410000000000025,88,93,1.46,RU,1690331473
109,lebu,-37.6167,-73.65,9.600000000000023,84,9,0.33,CL,1690331474
110,thompson,55.7435,-97.8558,22.090000000000032,43,40,5.66,CA,1690331474
111,keflavik,64.0049,-22.5624,12.950000000000045,87,100,5.14,IS,1690331474
112,kingston,17.997,-76.7936,29.53000000000003,81,20,4.63,JM,1690331427
113,winnemucca,40.973,-117.7357,36.03000000000003,4,0,7.2,US,1690331474
114,fale old settlement,-9.3852,-171.2468,28.720000000000027,72,7,7.45,TK,1690331474
115,klaksvik,62.2266,-6.589,9.510000000000048,84,100,4.12,FO,1690331474
116,bardai,11.65,7.2333,22.860000000000014,82,42,2.69,NG,1690331474
117,cootamundra,-34.65,148.0333,12.75,62,0,1.09,AU,1690331474
118,puerto ayora,-0.7393,-90.3518,25.310000000000002,92,41,1.79,EC,1690331427
119,vernon,50.2581,-119.2691,23.74000000000001,36,50,4.02,CA,1690331474
120,aburi,5.8472,-0.1775,22.840000000000032,94,39,2.11,GH,1690331475
121,isangel,-19.55,169.2667,24.060000000000002,69,75,2.57,VU,1690331475
122,chonchi,-42.6128,-73.8092,7.2900000000000205,97,47,1.26,CL,1690331475
123,torun,53.0137,18.5981,17.57000000000005,87,100,2.57,PL,1690331475
124,east london,-33.0153,27.9116,14.629999999999995,28,79,2.9,ZA,1690331475
125,fort st. john,56.2499,-120.8529,12.939999999999998,82,100,6.17,CA,1690331476
126,n'zeto,-7.2312,12.8666,20.620000000000005,92,42,1.01,AO,1690331476
127,san patricio,28.017,-97.5169,33.400000000000034,58,0,6.67,US,1690331440
128,listowel,52.4464,-9.485,13.840000000000032,91,99,3.01,IE,1690331476
129,remire-montjoly,4.9167,-52.2667,26.02000000000004,94,20,0.0,GF,1690331476
130,ploudalmezeau,48.5333,-4.65,16.140000000000043,94,100,2.06,FR,1690331476
131,coron,11.9986,120.2043,27.200000000000045,87,100,7.68,PH,1690331476
132,makarov,48.6333,142.8,17.379999999999995,96,100,2.29,RU,1690331476
133,ondjiva,-17.0667,15.7333,15.490000000000009,31,0,0.82,AO,1690331476
134,tofol,5.3248,163.0078,28.879999999999995,79,75,1.54,FM,1690331477
135,sechura,-5.5569,-80.8222,22.32000000000005,72,39,7.41,PE,1690331477
136,bulgan,48.8125,103.5347,16.680000000000007,65,17,1.5,MN,1690331477
137,cozumel,20.5083,-86.9458,31.04000000000002,89,20,4.63,MX,1690331477
138,daru,-9.0763,143.2092,26.5,67,100,6.02,PG,1690331477
139,mount carmel,38.4109,-87.7614,31.090000000000032,70,0,2.21,US,1690331477
140,"laikit, laikit ii (dimembe)",1.4792,124.9735,28.470000000000027,62,20,6.69,ID,1690331478
141,kawm umbu,24.4767,32.9463,33.23000000000002,17,97,3.91,EG,1690331478
142,watsa,3.0372,29.5355,17.77000000000004,99,94,1.03,CD,1690331478
143,pangody,65.85,74.4859,19.180000000000007,65,100,5.83,RU,1690331478
144,enewetak,11.3474,162.3373,28.370000000000005,79,84,7.21,MH,1690331478
145,la sarre,48.8002,-79.1996,17.49000000000001,62,19,2.7,CA,1690331478
146,nyagan,62.1406,65.3936,15.710000000000036,97,100,1.73,RU,1690331478
147,tejen,37.3834,60.5054,30.57000000000005,15,0,5.74,TM,1690331478
148,hirara,24.8,125.2833,30.920000000000016,79,75,8.75,JP,1690331478
149,port alfred,-33.5906,26.891,14.960000000000036,45,0,3.44,ZA,1690331478
150,lazaro cardenas,17.9583,-102.2,28.54000000000002,76,86,0.72,MX,1690331472
151,yeed,4.55,43.0333,23.379999999999995,61,16,9.76,SO,1690331478
152,beira,-19.8436,34.8389,23.05000000000001,88,75,5.66,MZ,1690331479
153,smithfield,41.922,-71.5495,22.390000000000043,95,100,0.45,US,1690331479
154,quellon,-43.1167,-73.6167,7.470000000000027,84,94,2.28,CL,1690331447
155,blackmans bay,-43.0167,147.3167,14.29000000000002,65,100,3.8,AU,1690331479
156,rio grande,-32.035,-52.0986,16.060000000000002,97,100,6.08,BR,1690331479
157,flying fish cove,-10.4217,105.6791,24.82000000000005,88,75,3.6,CX,1690331479
158,oodweyne,9.4092,45.064,23.090000000000032,54,23,10.09,SO,1690331479
159,cosala,24.4125,-106.6908,27.04000000000002,80,100,1.13,MX,1690331479
160,kodinsk,58.6881,99.1844,21.870000000000005,64,81,1.59,RU,1690331479
161,lihue,21.9789,-159.3672,29.77000000000004,69,0,7.72,US,1690331479
162,west island,-12.1568,96.8225,24.99000000000001,69,40,9.26,CC,1690331480
163,marka,1.7159,44.7717,24.629999999999995,80,79,7.49,SO,1690331480
164,sabang,5.8933,95.3214,28.170000000000016,75,100,8.98,ID,1690331480
165,vilyuchinsk,52.9306,158.4028,22.150000000000034,68,80,2.31,RU,1690331480
166,vila franca do campo,37.7167,-25.4333,21.230000000000018,82,14,1.27,PT,1690331480
167,constantia,44.1833,28.65,24.379999999999995,74,6,10.34,RO,1690331480
168,laela,-8.5667,32.05,11.629999999999995,67,6,1.77,TZ,1690331480
169,kalemie,-5.9475,29.1947,20.80000000000001,50,1,1.07,CD,1690331480
170,hammerfest,70.6634,23.6821,11.25,87,40,3.09,NO,1690331481
171,north battleford,52.7834,-108.2847,26.05000000000001,53,0,6.69,CA,1690331231
172,kimbe,-5.5502,150.1429,30.05000000000001,62,81,5.65,PG,1690331481
173,jamestown,42.097,-79.2353,24.77000000000004,88,20,0.0,US,1690331481
174,talakan,50.3167,130.3667,25.230000000000018,65,18,2.51,RU,1690331482
175,union city,37.5958,-122.0192,36.30000000000001,48,0,8.75,US,1690331451
176,grand-popo,6.2804,1.8225,25.05000000000001,91,11,3.96,BJ,1690331482
177,rongelap,11.1635,166.8941,28.55000000000001,73,100,7.53,MH,1690331482
178,saint-philippe,-21.3585,55.7679,19.77000000000004,81,0,2.6,RE,1690331482
179,saudarkrokur,65.7461,-19.6394,6.3799999999999955,92,58,1.92,IS,1690331482
180,kingman,35.1894,-114.053,42.33000000000004,11,20,3.09,US,1690331479
181,hawaiian paradise park,19.5933,-154.9731,28.180000000000007,78,100,4.63,US,1690331483
182,shalkar,47.8288,59.6258,23.129999999999995,60,59,3.35,KZ,1690331483
183,as sulayyil,20.4607,45.5779,31.140000000000043,11,100,1.05,SA,1690331483
184,mahibadhoo,3.7833,72.9667,28.100000000000023,78,100,4.37,MV,1690331483
185,college,64.8569,-147.8028,28.04000000000002,54,75,4.12,US,1690331421
186,jaguey grande,22.5269,-81.1286,28.54000000000002,71,22,4.65,CU,1690331483
187,alaghsas,17.0187,8.0168,32.54000000000002,35,28,5.04,NE,1690331483
188,shitanjing,39.2342,106.3439,25.470000000000027,43,100,5.12,CN,1690331484
189,avarua,-21.2078,-159.775,25.03000000000003,57,75,3.09,CK,1690331484
190,al hufuf,25.3646,49.5653,30.189999999999998,20,0,0.0,SA,1690331280
191,tsiombe,-25.3,45.4833,16.980000000000018,60,64,3.11,MG,1690331484
192,midland,31.9974,-102.0779,37.370000000000005,21,0,7.72,US,1690331393
193,richards bay,-28.783,32.0377,16.75,76,74,6.34,ZA,1690331484
194,lianzhou,24.7811,112.3825,29.370000000000005,85,50,0.68,CN,1690331484
195,krasnozerskoye,53.9828,79.2374,19.670000000000016,53,6,2.94,RU,1690331484
196,yangjiang,21.85,111.9667,29.07000000000005,72,39,1.88,CN,1690331484
197,xiuyan,40.2928,123.2744,24.400000000000034,92,90,2.03,CN,1690331485
198,thunder bay,48.4001,-89.3168,22.99000000000001,64,75,2.06,CA,1690331458
199,kodiak,57.79,-152.4072,17.730000000000018,68,0,4.12,US,1690331485
200,praia da vitoria,38.7333,-27.0667,22.140000000000043,88,75,4.35,PT,1690331485
201,den helder,52.9599,4.7593,15.550000000000011,73,75,4.47,NL,1690331485
202,ancud,-41.8697,-73.8203,7.9500000000000455,83,35,3.04,CL,1690331485
203,afaahiti,-17.75,-149.2833,27.930000000000007,81,2,8.55,PF,1690331485
204,maxixe,-23.8597,35.3472,15.75,74,9,1.84,MZ,1690331485
205,cabo san lucas,22.8909,-109.9124,33.670000000000016,71,97,4.42,MX,1690331486
206,klyuchi,52.2667,79.1667,21.75,47,8,1.78,RU,1690331442
207,chekmagush,55.1319,54.6556,16.30000000000001,78,18,2.31,RU,1690331486
208,lorengau,-2.0226,147.2712,28.560000000000002,75,64,7.12,PG,1690331486
209,cumbal,0.9088,-77.7915,7.680000000000007,96,100,1.67,CO,1690331486
210,broken hill,-31.95,141.4333,14.629999999999995,42,0,3.69,AU,1690331486
211,weligama,5.9667,80.4167,25.180000000000007,87,93,3.29,LK,1690331486
212,ziniare,12.5822,-1.2983,27.02000000000004,68,11,4.49,BF,1690331486
213,mount gambier,-37.8333,140.7667,11.29000000000002,70,100,2.65,AU,1690331486
214,north bay,46.3168,-79.4663,23.30000000000001,73,20,3.6,CA,1690331486
215,kavieng,-2.5744,150.7967,27.970000000000027,77,100,6.17,PG,1690331486
216,inhambane,-23.865,35.3833,16.560000000000002,71,10,2.07,MZ,1690331487
217,sao vicente,-23.9631,-46.3919,26.100000000000023,26,34,0.87,BR,1690331272
218,boa vista,2.8197,-60.6733,24.99000000000001,94,40,1.03,BR,1690331484
219,kuta,-8.7233,115.1723,25.970000000000027,83,40,7.2,ID,1690331487
220,reyes,-14.3167,-67.3833,22.680000000000007,74,0,0.54,BO,1690331487
221,jiaojiang,28.6803,121.4428,31.110000000000014,77,53,3.13,CN,1690331487
222,gadzhiyevo,69.2551,33.3362,9.620000000000005,95,99,2.31,RU,1690331487
223,salahonda,2.1019,-78.7217,26.870000000000005,82,100,6.49,CO,1690331487
224,bredasdorp,-34.5322,20.0403,7.160000000000025,74,88,0.74,ZA,1690331487
225,elko,41.0002,-115.5012,33.01000000000005,9,0,7.6,US,1690331238
226,vadso,70.0744,29.7487,9.490000000000009,93,100,3.09,NO,1690331437
227,ventspils,57.3894,21.5606,11.960000000000036,100,47,1.03,LV,1690331488
228,laguna,38.421,-121.4238,38.94,24,0,3.6,US,1690331488
229,yuzhno-kurilsk,44.0306,145.8556,22.24000000000001,82,51,1.15,RU,1690331488
230,benalla,-36.55,145.9833,12.390000000000043,75,85,1.27,AU,1690331488
231,dingwall,57.5953,-4.4272,11.620000000000005,90,26,1.58,GB,1690331488
232,suluru,13.7,80.0167,25.30000000000001,81,100,4.75,IN,1690331488
233,moyale,3.5167,39.0584,19.52000000000004,65,100,6.83,KE,1690331488
234,de queen,34.0379,-94.3413,33.07000000000005,55,0,2.57,US,1690331488
235,humaita,-7.5061,-63.0208,25.120000000000005,48,96,0.72,BR,1690331488
236,korla,41.7597,86.1469,30.920000000000016,26,100,2.86,CN,1690331488
237,martapura,-3.4167,114.85,22.05000000000001,94,0,0.0,ID,1690331488
238,udachny,66.4167,112.4,15.25,82,100,5.45,RU,1690331489
239,north caldwell,40.8648,-74.2582,21.24000000000001,90,40,1.54,US,1690331489
240,fuyuan,46.4333,127.0833,25.0,83,4,4.12,CN,1690331489
241,petropavlovsk-kamchatsky,53.0452,158.6483,21.33000000000004,68,20,2.0,RU,1690331489
242,puerto deseado,-47.7503,-65.8938,1.8500000000000227,95,100,11.3,AR,1690331489
243,antsohihy,-14.8796,47.9875,19.02000000000004,88,38,1.54,MG,1690331489
244,bafra,41.5678,35.9069,19.140000000000043,77,0,2.73,TR,1690331489
245,qaqortoq,60.7167,-46.0333,6.150000000000034,90,91,1.1,GL,1690331489
246,midvagur,62.0511,-7.1939,9.460000000000036,93,75,3.6,FO,1690331489
247,porlamar,10.958,-63.8491,27.07000000000005,85,40,5.34,VE,1690331325
248,oranjemund,-28.55,16.4333,11.920000000000016,90,3,5.32,NA,1690331490
249,mhamid,29.82,-5.72,34.54000000000002,11,0,3.31,MA,1690331490
250,bodo,67.28,14.405,16.54000000000002,78,0,6.17,NO,1690331490
251,tura,25.5198,90.2201,24.840000000000032,95,100,2.6,IN,1690331490
252,hadibu,12.65,54.0333,24.99000000000001,79,50,12.36,YE,1690331490
253,mogocha,53.7333,119.7667,22.939999999999998,62,18,1.08,RU,1690331490
254,itaporanga,-7.3044,-38.1503,25.29000000000002,53,48,5.84,BR,1690331261
255,mata-utu,-13.2816,-176.1745,26.640000000000043,75,100,6.95,WF,1690331490
256,alofi,-19.0595,-169.9187,23.939999999999998,64,40,3.6,NU,1690331490
257,dunedin,-45.8742,170.5036,10.600000000000023,53,33,2.68,NZ,1690331398
258,burayevo,55.8407,55.4083,15.29000000000002,82,53,2.21,RU,1690331491
259,baie-saint-paul,47.4411,-70.4986,23.470000000000027,86,100,2.47,CA,1690331491
260,barcelos,41.5388,-8.6151,17.05000000000001,84,0,2.12,PT,1690331491
261,kutum,14.2,24.6667,28.810000000000002,33,92,7.51,SD,1690331491
262,lagoa vermelha,-28.2086,-51.5258,15.050000000000011,88,65,1.65,BR,1690331233
263,penha,-26.7694,-48.6458,18.930000000000007,100,100,1.54,BR,1690331305
264,dakhla,23.6848,-15.958,19.950000000000045,89,7,10.02,EH,1690331491
265,dedovichi,57.5517,29.9502,13.450000000000045,97,95,2.22,RU,1690331491
266,huarmey,-10.0681,-78.1522,20.620000000000005,81,41,4.67,PE,1690331491
267,battagram,34.6772,73.0233,22.79000000000002,80,9,1.5,PK,1690331491
268,kupang,-10.1667,123.5833,24.890000000000043,64,38,5.84,ID,1690331491
269,labrador city,52.9463,-66.9114,15.950000000000045,94,75,0.0,CA,1690331492
270,zaigrayevo,51.8336,108.2703,19.08000000000004,72,100,0.99,RU,1690331492
271,tual,-5.6667,132.75,25.370000000000005,80,100,8.3,ID,1690331492
272,terrace,54.5163,-128.6035,15.680000000000007,88,100,7.2,CA,1690331492
273,qamdo,31.1667,97.2333,6.930000000000007,77,100,1.06,CN,1690331463
274,l'isle-jourdain,43.6144,1.0817,16.960000000000036,96,99,3.07,FR,1690331492
275,porto novo,6.4965,2.6036,24.900000000000034,93,13,2.38,BJ,1690331492
276,punta arenas,-53.15,-70.9167,-0.3499999999999659,88,33,4.9,CL,1690331492
277,horta,38.5333,-28.6333,20.57000000000005,85,16,1.79,PT,1690331492
278,naze,28.3667,129.4833,29.510000000000048,83,17,6.46,JP,1690331492
279,new norfolk,-42.7826,147.0587,14.950000000000045,71,100,3.52,AU,1690331493
280,saint-joseph,-21.3667,55.6167,19.210000000000036,80,0,1.91,RE,1690331493
281,kabompo,-13.5927,24.2008,12.879999999999995,52,5,2.75,ZM,1690331493
282,valle de la pascua,9.2155,-66.0073,23.640000000000043,94,100,1.29,VE,1690331493
283,east ballina,-28.8667,153.5833,15.439999999999998,69,53,3.35,AU,1690331493
284,kailua-kona,19.6406,-155.9956,28.980000000000018,80,100,3.6,US,1690331493
285,tangalle,6.024,80.7911,25.090000000000032,88,100,4.1,LK,1690331493
286,selfoss,63.9331,-20.9971,11.689999999999998,87,100,1.91,IS,1690331493
287,hasaki,35.7333,140.8333,32.94,74,27,3.7,JP,1690331493
288,nemuro,43.3236,145.575,18.25,95,76,1.93,JP,1690331493
289,kochenevo,55.0218,82.202,17.660000000000025,63,0,4.04,RU,1690331494
290,kermit,31.8576,-103.0927,37.910000000000025,16,0,9.26,US,1690331494
291,sinop,41.7711,34.8709,16.670000000000016,70,0,3.53,TR,1690331494
292,guiuan,11.0333,125.7247,28.840000000000032,74,100,9.29,PH,1690331494
293,tokar,18.4254,37.729,36.860000000000014,30,60,11.06,SD,1690331494
294,polyarnyy,69.1989,33.4478,9.770000000000039,95,100,2.25,RU,1690331494
295,tazovsky,67.4667,78.7,13.760000000000048,66,47,4.98,RU,1690331482
296,puerto baquerizo moreno,-0.9,-89.6,25.110000000000014,81,93,4.95,EC,1690331494
297,adoru,6.9766,7.1627,23.220000000000027,97,100,1.14,NG,1690331494
298,rancho palos verdes,33.7445,-118.387,36.03000000000003,71,20,7.72,US,1690331494
299,vanadzor,40.8046,44.4939,14.939999999999998,95,82,1.18,AM,1690331495
300,portland,45.5234,-122.6762,27.590000000000032,41,20,5.14,US,1690331312
301,thabazimbi,-24.5917,27.4116,11.0,86,5,2.07,ZA,1690331495
302,orcopampa,-15.2661,-72.3417,7.960000000000036,35,0,1.13,PE,1690331495
303,pacasmayo,-7.4006,-79.5714,20.879999999999995,83,47,6.09,PE,1690331495
304,yinchuan,38.4681,106.2731,28.890000000000043,36,100,3.28,CN,1690331495
305,ponta delgada,37.7333,-25.6667,21.400000000000034,83,40,1.03,PT,1690331495
306,wladyslawowo,54.7909,18.4009,14.189999999999998,85,100,5.36,PL,1690331495
307,bartica,6.4,-58.6167,26.180000000000007,98,48,1.26,GY,1690331495
308,vyara,21.1167,73.4,24.600000000000023,97,100,2.63,IN,1690331495
309,turkmenbasy,40.0222,52.9552,22.430000000000007,73,0,5.14,TM,1690331495
310,lata,40.1629,-8.3327,15.600000000000023,92,0,1.12,PT,1690331495
311,leisnig,51.1667,12.9167,14.120000000000005,96,100,3.55,DE,1690331496
312,berbera,10.4396,45.0143,33.01000000000005,39,75,14.12,SO,1690331496
313,pyin oo lwin,22.0333,96.4667,21.680000000000007,88,98,0.74,MM,1690331496
314,yilan,24.757,121.753,30.510000000000048,98,100,5.98,TW,1690331496
315,ujae,8.9322,165.7642,28.02000000000004,82,100,7.06,MH,1690331496
316,ha giang,22.8333,104.9833,29.870000000000005,77,100,0.45,VN,1690331496
317,bridlington,54.0831,-0.1919,12.79000000000002,89,20,1.79,GB,1690331496
318,popondetta,-8.7537,148.2534,30.170000000000016,49,95,1.75,PG,1690331496
319,kidal,18.4411,1.4078,33.420000000000016,37,78,3.54,ML,1690331496
320,kumagunnam,13.1551,10.6342,29.230000000000018,52,90,4.09,NG,1690331496
321,brookings,44.3114,-96.7984,32.19,65,0,4.63,US,1690331496
322,vorgashor,67.5833,63.95,16.80000000000001,81,100,3.38,RU,1690331496
323,ust-tsilma,65.441,52.1498,12.970000000000027,93,22,1.28,RU,1690331497
324,qarah bagh,34.9402,61.7759,24.900000000000034,18,2,2.31,AF,1690331497
325,fada,9.5667,8.3,19.870000000000005,97,67,0.88,NG,1690331497
326,playa del ingles,27.7567,-15.5787,23.0,82,6,5.77,ES,1690331351
327,wynyard,-41.0,145.7167,12.82000000000005,77,100,4.25,AU,1690331497
328,camayenne,9.535,-13.6878,25.05000000000001,94,75,4.12,GN,1690331497
329,zara,44.1197,15.2422,24.340000000000032,69,0,2.57,HR,1690331497
330,auki,-8.7676,160.7034,28.620000000000005,78,100,3.19,SB,1690331497
331,acarau,-2.8856,-40.12,25.99000000000001,80,8,6.72,BR,1690331497
332,fortuna,40.5982,-124.1573,22.180000000000007,71,40,7.2,US,1690331416
333,juan griego,11.0817,-63.9655,26.980000000000018,85,99,4.82,VE,1690331498
334,mersa matruh,31.3525,27.2453,26.110000000000014,78,0,3.6,EG,1690331498
335,ben lomond,37.0891,-122.0863,33.94,49,4,2.9,US,1690331498
336,fort bragg,35.139,-79.006,32.32000000000005,62,0,1.54,US,1690331418
337,ha'il,27.5219,41.6907,32.01000000000005,18,0,2.06,SA,1690331498
338,calvinia,-31.4707,19.776,13.25,30,100,3.14,ZA,1690331498
339,aketi,2.7388,23.7833,21.560000000000002,97,98,0.64,CD,1690331498
340,tamanrasset,22.785,5.5228,26.950000000000045,12,0,2.06,DZ,1690331498
341,geraldton,-28.7667,114.6,15.230000000000018,72,40,5.66,AU,1690331479
342,anonang,11.0,124.0333,28.900000000000034,73,100,7.69,PH,1690331498
343,pisco,-13.7,-76.2167,19.03000000000003,77,0,6.69,PE,1690331498
344,inirida,3.8653,-67.9239,22.29000000000002,99,97,0.41,CO,1690331498
345,pankrushikha,53.8319,80.3406,19.390000000000043,58,5,3.21,RU,1690331498
346,howrah,22.5892,88.3103,28.0,89,75,2.06,IN,1690331499
347,yenifakili,39.2114,35.0004,13.970000000000027,82,0,1.38,TR,1690331499
348,quinhamel,11.8833,-15.85,25.760000000000048,89,100,2.16,GW,1690331499
349,peniche,39.3558,-9.3811,17.939999999999998,88,0,8.2,PT,1690331499
350,margate,51.3813,1.3862,15.390000000000043,70,15,2.24,GB,1690331472
351,safford,32.834,-109.7076,42.51000000000005,12,0,1.54,US,1690331499
352,pimentel,-6.8367,-79.9342,23.160000000000025,68,75,4.12,PE,1690331499
353,miri,4.4148,114.0089,28.08000000000004,89,20,1.54,MY,1690331499
354,termoli,41.9888,14.9895,22.54000000000002,78,0,1.35,IT,1690331499
355,rindge,42.7512,-72.0098,21.74000000000001,86,0,3.09,US,1690331420
356,inverloch,-38.6333,145.7167,11.430000000000007,76,100,4.17,AU,1690331500
357,princeville,45.7668,-61.2985,23.510000000000048,74,0,2.06,CA,1690331500
358,koumra,8.9126,17.5539,22.950000000000045,94,100,0.72,TD,1690331500
359,ichinoseki,38.9167,141.1333,31.80000000000001,58,17,1.16,JP,1690331500
360,champerico,14.3,-91.9167,32.30000000000001,71,35,3.21,GT,1690331500
361,masuguru,-11.3667,38.4167,19.410000000000025,78,54,1.55,TZ,1690331500
362,yarmouth,41.7057,-70.2286,25.189999999999998,81,75,4.63,US,1690331500
363,tambura,5.6,27.4667,20.629999999999995,96,100,2.28,SS,1690331500
364,carnarvon,-24.8667,113.6333,17.939999999999998,54,33,7.77,AU,1690331500
365,saquarema,-22.92,-42.5103,20.140000000000043,90,0,5.35,BR,1690331500
366,greenville,35.6127,-77.3663,30.090000000000032,80,0,0.0,US,1690331408
367,yelizovo,53.1873,158.3805,22.08000000000004,68,20,2.0,RU,1690331500
368,kismayo,-0.3582,42.5454,24.390000000000043,80,55,6.7,SO,1690331501
369,kununurra,-15.7667,128.7333,19.99000000000001,40,10,3.6,AU,1690331501
370,tralee,52.2704,-9.7026,13.990000000000009,90,100,2.42,IE,1690331501
371,barpeta road,26.5028,90.9694,26.680000000000007,91,99,1.76,IN,1690331501
372,bonthe,7.5264,-12.505,24.200000000000045,93,100,1.15,SL,1690331501
373,hamilton,39.1834,-84.5333,29.680000000000007,61,0,2.06,US,1690331501
374,utrik,11.2278,169.8474,28.560000000000002,79,73,8.39,MH,1690331501
375,kudymkar,59.0173,54.656,13.629999999999995,96,100,2.02,RU,1690331501
376,ad dawadimi,24.5077,44.3924,28.640000000000043,14,100,4.9,SA,1690331501
377,pitimbu,-7.4706,-34.8086,23.33000000000004,80,75,5.09,BR,1690331501
378,kocaali,41.0534,30.8528,22.29000000000002,47,0,2.22,TR,1690331501
379,bandarbeyla,9.4942,50.8122,23.939999999999998,80,59,13.36,SO,1690331501
380,ippy,6.2679,21.2247,20.24000000000001,98,100,1.15,CF,1690331502
381,sakakah,29.9697,40.2064,30.760000000000048,17,8,4.79,SA,1690331502
382,dudinka,69.4058,86.1778,17.57000000000005,57,0,5.77,RU,1690331502
383,rawai,7.7797,98.3253,29.430000000000007,79,100,6.14,TH,1690331502
384,minas de marcona,-15.2119,-75.1103,12.439999999999998,88,35,5.68,PE,1690331502
385,broome,42.2506,-75.833,22.05000000000001,92,42,0.09,US,1690331502
386,guerrero negro,27.9769,-114.0611,22.700000000000045,69,28,7.7,MX,1690331502
387,nar'yan-mar,67.6713,53.087,16.060000000000002,77,42,1.7,RU,1690331502
388,roccella ionica,38.322,16.4009,27.420000000000016,82,12,5.38,IT,1690331502
389,buka,40.8108,69.1986,25.910000000000025,22,0,3.05,UZ,1690331502
390,kita,13.0349,-9.4895,23.960000000000036,89,100,1.38,ML,1690331503
391,shingu,33.7333,135.9833,30.629999999999995,62,97,1.64,JP,1690331486
392,al faw,29.9776,48.4741,31.0,19,12,4.35,IQ,1690331503
393,eskisehir,39.7767,30.5206,14.930000000000007,67,0,1.03,TR,1690331503
394,usinsk,65.9939,57.5281,16.360000000000014,78,100,0.28,RU,1690331503
395,magadan,59.5667,150.8,22.52000000000004,81,100,2.59,RU,1690331503
396,inskoy,54.4297,86.44,17.83000000000004,85,59,1.96,RU,1690331503
397,spring creek,40.7266,-115.5859,32.83000000000004,17,53,3.91,US,1690331503
398,cape coast,5.1053,-1.2466,24.52000000000004,92,51,3.84,GH,1690331503
399,pelotas,-31.7719,-52.3425,16.010000000000048,98,100,6.69,BR,1690331468
400,dhidhdhoo,6.8833,73.1,27.420000000000016,81,100,3.93,MV,1690331503
401,huilong,31.8111,121.655,27.810000000000002,87,100,7.68,CN,1690331503
402,newman,37.3138,-121.0208,37.379999999999995,9,0,3.1,US,1690331503
403,happy valley-goose bay,53.3168,-60.3315,19.170000000000016,88,75,3.6,CA,1690331504
404,figuig (centre),32.1089,-1.2286,32.19,18,86,3.69,MA,1690331504
405,talcahuano,-36.7167,-73.1167,9.82000000000005,100,75,1.54,CL,1690331416
406,inongo,-1.95,18.2667,20.410000000000025,87,33,2.05,CD,1690331504
407,jolo,6.05,121.0167,28.410000000000025,77,100,5.05,PH,1690331505
408,verkhnevilyuysk,63.4453,120.3167,20.650000000000034,43,100,3.34,RU,1690331505
409,necochea,-38.5473,-58.7368,7.310000000000002,92,100,3.83,AR,1690331505
410,haiku-pauwela,20.9219,-156.3051,29.54000000000002,65,20,12.35,US,1690331505
411,evergem,51.1455,3.7118,16.08000000000004,81,56,3.3,BE,1690331506
412,mu'minobod,38.1085,70.0285,24.350000000000023,26,0,2.79,TJ,1690331506
413,diu,20.7141,70.9822,26.78000000000003,88,100,5.92,IN,1690331506
414,calchaqui,-29.8877,-60.287,12.32000000000005,85,100,1.32,AR,1690331506
415,thinadhoo,0.5333,72.9333,28.25,79,72,6.61,MV,1690331506
416,rockland,41.1668,-74.0496,21.129999999999995,95,100,1.62,US,1690331407
417,ishinomaki,38.4167,141.3,30.0,71,5,2.61,JP,1690331506
418,songjianghe,42.1859,127.479,22.620000000000005,79,100,2.51,CN,1690331506
419,andergrove,-21.0833,149.1833,22.58000000000004,65,2,10.07,AU,1690331506
420,beau vallon,-20.4189,57.6953,20.680000000000007,94,40,1.54,MU,1690331507
421,tibati,6.4667,12.6333,19.970000000000027,94,100,0.92,CM,1690331507
422,bargaal,11.2864,51.0773,26.660000000000025,65,41,13.04,SO,1690331507
423,marica,-22.9194,-42.8186,22.950000000000045,84,0,3.63,BR,1690331507
424,kharp,66.8014,65.8081,18.24000000000001,72,100,4.44,RU,1690331507
425,el calafate,-50.3408,-72.2768,-5.25,63,6,1.91,AR,1690331507
426,turkestan,43.3333,68.25,31.03000000000003,19,0,4.35,KZ,1690331507
427,neiafu,-18.65,-173.9833,25.379999999999995,65,40,1.03,TO,1690331507
428,soltvadkert,46.5789,19.3939,19.340000000000032,92,71,2.82,HU,1690331507
429,puerto ayacucho,5.6639,-67.6236,23.510000000000048,95,100,1.46,VE,1690331507
430,mossel bay,-34.1831,22.146,6.960000000000036,63,0,0.87,ZA,1690331508
431,george town,5.4112,100.3354,27.960000000000036,93,20,1.03,MY,1690331211
432,hotan,37.0997,79.9269,26.78000000000003,34,58,0.12,CN,1690331508
433,arawa,-6.2132,155.5367,26.100000000000023,92,100,2.29,PG,1690331508
434,tshabong,-26.05,22.45,15.370000000000005,60,41,9.51,BW,1690331508
435,tottori,35.5,134.2333,31.04000000000002,66,20,1.03,JP,1690331244
436,makokou,0.5738,12.8642,21.49000000000001,96,100,0.88,GA,1690331508
437,tarabha,20.7333,83.65,27.180000000000007,84,69,3.67,IN,1690331508
438,san antonio de pale,-1.4014,5.6325,22.900000000000034,92,100,4.96,GQ,1690331508
439,city of balikpapan,-1.242,116.8942,26.970000000000027,94,75,3.6,ID,1690331508
440,mukalla,14.5425,49.1242,28.410000000000025,82,18,1.75,YE,1690331508
441,mokhsogollokh,61.4681,128.9203,23.30000000000001,32,5,3.62,RU,1690331508
442,santa marta,11.2408,-74.199,30.03000000000003,72,20,10.73,CO,1690331509
443,sola,-13.8833,167.55,24.370000000000005,94,100,5.14,VU,1690331509
444,villas,26.5504,-81.8687,33.01000000000005,61,0,3.6,US,1690331509
445,xining,36.6167,101.7667,18.480000000000018,54,100,1.1,CN,1690331509
446,adra,36.7496,-3.0206,29.100000000000023,55,3,0.28,ES,1690331509
447,antibes,43.5624,7.1278,24.710000000000036,33,0,4.12,FR,1690331509
448,jucas,-6.5253,-39.5275,22.129999999999995,56,69,1.59,BR,1690331509
449,khed,17.7167,73.3833,24.100000000000023,98,100,0.97,IN,1690331509
450,el nido,11.1858,119.3956,27.939999999999998,84,97,9.97,PH,1690331509
451,banjarmasin,-3.3244,114.591,22.08000000000004,81,56,1.21,ID,1690331376
452,sungai penuh,-2.0833,101.3833,20.260000000000048,88,69,0.13,ID,1690331509
453,lesko,49.4701,22.3304,14.480000000000018,99,100,0.15,PL,1690331510
454,pindwara,24.8,73.0667,25.760000000000048,92,100,2.22,IN,1690331510
455,atbara,17.7022,33.9864,33.03000000000003,37,100,7.92,SD,1690331435
456,tazacorte,28.629,-17.9293,22.54000000000002,80,75,4.63,ES,1690331454
457,tumpat,6.1978,102.171,26.99000000000001,94,20,1.03,MY,1690331510
458,dhulikhel,27.6189,85.5529,20.75,85,98,0.85,NP,1690331510
459,bengkulu,-3.8004,102.2655,25.400000000000034,81,76,1.74,ID,1690331510
460,coyhaique,-45.5752,-72.0662,2.6000000000000227,99,100,1.53,CL,1690331510
461,ji'an,27.1172,114.9793,29.220000000000027,75,13,1.74,CN,1690331510
462,illizi,26.4833,8.4667,33.89000000000004,12,5,4.85,DZ,1690331510
463,port sudan,19.6175,37.2164,34.43000000000001,27,44,1.68,SD,1690331510
464,nuuk,64.1835,-51.7216,10.340000000000032,71,7,3.6,GL,1690331510
465,charlottetown,46.2352,-63.1267,23.760000000000048,65,20,3.6,CA,1690331464
466,tonj,7.2737,28.6822,21.670000000000016,98,100,0.91,SS,1690331510
467,imbituba,-28.24,-48.6703,17.410000000000025,94,12,1.92,BR,1690331511
468,jinchang,38.4953,102.1739,26.840000000000032,29,100,6.13,CN,1690331511
469,colonia,50.9333,6.95,14.920000000000016,79,0,1.03,DE,1690331296
470,ivdel',60.6911,60.4206,14.379999999999995,85,7,1.16,RU,1690331511
471,'alaqahdari dishu,30.4374,63.313,29.33000000000004,58,5,4.23,AF,1690331511
472,na mom,6.9586,100.5568,25.910000000000025,94,75,0.0,TH,1690331511
473,farsan,32.2569,50.561,16.02000000000004,23,0,2.37,IR,1690331511
474,aleksandrovsk-sakhalinskiy,50.8975,142.1561,18.439999999999998,98,100,3.16,RU,1690331511
475,maqat,47.65,53.3167,21.260000000000048,72,4,3.62,KZ,1690331511
476,zholymbet,51.7433,71.7122,20.75,42,100,2.23,KZ,1690331511
477,ontario,34.0633,-117.6509,42.27000000000004,34,20,7.72,US,1690331511
478,nuku'alofa,-21.1333,-175.2,23.189999999999998,60,75,3.09,TO,1690331511
479,opuwo,-18.0607,13.84,15.870000000000005,36,0,1.94,NA,1690331511
480,birjand,32.8663,59.2211,23.260000000000048,18,0,3.09,IR,1690331511
481,chernyshevskiy,63.0128,112.4714,20.950000000000045,76,72,3.82,RU,1690331512
482,petaluma,38.2324,-122.6367,37.05000000000001,39,0,6.17,US,1690331141
483,kayangel,8.0823,134.7173,25.82000000000005,83,100,5.24,PW,1690331512
484,bukama,-9.2,25.85,20.879999999999995,37,56,0.85,CD,1690331512
485,alice springs,-23.7,133.8833,10.75,54,0,0.0,AU,1690331512
486,mili,6.0815,171.735,28.310000000000002,73,82,2.31,MH,1690331512
487,tosontsengel,48.7567,98.2839,13.020000000000039,56,17,1.26,MN,1690331512
488,gimbi,9.1667,35.8333,13.810000000000002,97,100,0.96,ET,1690331512
489,kolonia town,6.964,158.206,27.060000000000002,89,100,2.57,FM,1690331512
490,lagunas,-5.2269,-75.6753,25.850000000000023,68,55,1.1,PE,1690331512
491,gornozavodsk,58.3758,58.3211,13.340000000000032,83,87,1.35,RU,1690331512
492,kon tum,14.35,108.0,23.140000000000043,96,92,1.42,VN,1690331512
493,lodwar,3.1191,35.5973,26.620000000000005,52,95,6.23,KE,1690331513
494,antofagasta,-23.65,-70.4,16.600000000000023,80,87,1.06,CL,1690331513
495,hithadhoo,-0.6,73.0833,28.140000000000043,79,100,6.81,MV,1690331513
496,mugia,43.1041,-9.2179,14.950000000000045,86,95,2.14,ES,1690331513
497,namtsy,62.7161,129.6658,22.430000000000007,35,8,4.6,RU,1690331513
498,malmberget,67.1753,20.6549,12.310000000000002,88,100,2.06,SE,1690331513
499,chetwayi,10.5333,76.05,24.760000000000048,88,99,1.8,IN,1690331513
500,hobyo,5.3505,48.5268,24.689999999999998,83,64,10.95,SO,1690331513
501,moscow,55.7522,37.6156,18.24000000000001,96,72,3.02,RU,1690330904
502,jalgaon,21.0167,75.5667,24.720000000000027,90,36,3.81,IN,1690331513
503,lefkada,38.8275,20.7019,25.950000000000045,89,0,0.0,GR,1690331513
504,proletariy,58.4342,31.7046,16.129999999999995,98,88,2.11,RU,1690331513
505,zouerate,22.7187,-12.4521,32.670000000000016,19,9,7.15,MR,1690331513
506,bikenibeu village,1.3673,173.1241,25.980000000000018,89,75,2.06,KI,1690331514
507,muisne,0.6,-80.0333,25.05000000000001,85,100,3.72,EC,1690331514
508,salinopolis,-0.6136,-47.3561,26.390000000000043,81,47,5.02,BR,1690331514
509,zeya,53.75,127.2667,21.110000000000014,66,100,1.42,RU,1690331514
510,slave lake,55.2834,-114.769,14.990000000000009,67,40,7.72,CA,1690331514
511,qal'ah-ye shahr,35.5473,65.5676,16.150000000000034,39,5,0.36,AF,1690331514
512,susuman,62.7833,148.1667,16.700000000000045,68,100,2.59,RU,1690331514
513,bredy,52.4153,60.3411,18.960000000000036,66,100,3.07,RU,1690331514
514,walvis bay,-22.9575,14.5053,12.270000000000039,93,0,3.6,NA,1690331514
515,taroa,8.7058,171.2275,27.75,82,100,8.16,MH,1690331514
516,sorong,-0.8833,131.25,24.850000000000023,88,100,5.43,ID,1690331514
517,sooke,48.3746,-123.7276,22.350000000000023,59,17,5.99,CA,1690331514
518,spencer,43.1414,-95.1444,29.860000000000014,82,64,2.8,US,1690331514
519,juneau,58.3019,-134.4197,21.0,100,75,6.17,US,1690331514
520,krasnovishersk,60.4078,57.082,13.870000000000005,95,87,1.52,RU,1690331514
521,valparaiso,-33.0393,-71.6273,15.0,65,97,5.53,CL,1690331226
522,los alamos,35.8881,-106.307,32.31,16,100,8.75,US,1690331515
523,oyonnax,46.2592,5.6573,12.400000000000034,94,16,1.02,FR,1690331515
524,amga,60.8953,131.9608,24.220000000000027,37,5,2.88,RU,1690331515
525,shiyan,32.6475,110.7781,26.28000000000003,84,96,2.27,CN,1690331515
526,yatou,37.15,122.3833,27.629999999999995,79,100,5.65,CN,1690331515
527,trincomalee,8.5711,81.2335,27.07000000000005,75,100,8.51,LK,1690331515
528,las lajitas,-24.6833,-64.25,11.550000000000011,65,0,1.59,AR,1690331515
529,thanesar,29.9833,76.8167,26.5,81,100,3.63,IN,1690331515
530,kittila,67.6647,24.8936,12.560000000000002,100,40,2.06,FI,1690331370
531,jumla,29.2747,82.1838,17.27000000000004,93,100,0.03,NP,1690331515
532,miyako,39.6367,141.9525,29.660000000000025,63,0,1.26,JP,1690331516
533,arvayheer,46.2639,102.775,16.74000000000001,46,8,2.82,MN,1690331516
534,chokwe,-24.5333,32.9833,15.510000000000048,73,55,2.2,MZ,1690331516
535,standerton,-26.9337,29.2415,7.560000000000002,95,57,2.1,ZA,1690331516
536,mount isa,-20.7333,139.5,19.870000000000005,64,100,5.14,AU,1690331516
537,la huacana,18.9667,-101.8167,24.689999999999998,86,97,1.95,MX,1690331313
538,bezhetsk,57.7851,36.6965,14.450000000000045,97,55,4.05,RU,1690331516
539,sigli,5.3848,95.9609,27.560000000000002,65,100,1.76,ID,1690331516
540,el alto,-4.2714,-81.2147,22.810000000000002,86,14,6.63,PE,1690331516
541,krasnokamensk,50.0979,118.0369,23.03000000000003,64,30,1.19,RU,1690331516
542,olyokminsk,60.3736,120.4264,26.700000000000045,49,8,1.89,RU,1690331516
543,fuglafjordur,62.244,-6.814,9.260000000000048,87,100,3.24,FO,1690331516
544,laojunmiao,39.8333,97.7333,23.390000000000043,19,44,0.34,CN,1690331517
545,tinajo,29.0788,-13.7081,22.49000000000001,68,75,6.17,ES,1690331517
546,northam,51.0333,-4.2167,11.879999999999995,82,1,2.04,GB,1690331517
547,assai,-23.3733,-50.8414,21.920000000000016,54,3,1.68,BR,1690331517
548,carutapera,-1.195,-46.02,24.689999999999998,86,88,2.61,BR,1690331517
549,vilyuysk,63.7553,121.6247,20.77000000000004,40,88,3.32,RU,1690331517
550,prieska,-29.6641,22.7474,14.189999999999998,36,7,4.09,ZA,1690331517
551,hinthada,17.6333,95.4667,27.210000000000036,84,20,2.01,MM,1690331517
552,urucara,-2.5364,-57.76,25.80000000000001,54,15,0.43,BR,1690331517
553,nelson bay,-32.7167,152.15,16.670000000000016,88,12,3.58,AU,1690331256
554,santo antonio do ica,-3.1022,-67.9397,27.129999999999995,60,60,0.59,BR,1690331517
555,portomaggiore,44.6985,11.8068,22.220000000000027,81,34,2.25,IT,1690331518
556,twon-brass,4.3151,6.2418,25.720000000000027,88,100,3.89,NG,1690331518
557,noumea,-22.2763,166.4572,22.78000000000003,99,95,7.97,NC,1690331405
558,arteche,12.2645,125.4048,30.160000000000025,65,71,5.11,PH,1690331518
559,taghazout,30.5426,-9.7112,20.430000000000007,82,0,2.16,MA,1690331518
560,srivardhan,18.0333,73.0167,25.170000000000016,92,100,3.18,IN,1690331518
561,taco pozo,-25.6167,-63.2833,13.78000000000003,68,0,1.78,AR,1690331518
562,zaozersk,69.4005,32.4476,9.470000000000027,96,95,1.21,RU,1690331518
563,berezovyy,51.6667,135.7,19.52000000000004,96,100,1.16,RU,1690331518
564,swakopmund,-22.6833,14.5333,12.210000000000036,86,0,0.45,NA,1690331518
565,gamba,-2.65,10.0,20.860000000000014,96,23,1.96,GA,1690331519
566,port saint john's,-31.6229,29.5448,15.629999999999995,62,100,3.56,ZA,1690331519
567,ambon,-3.6954,128.1814,26.08000000000004,78,75,3.09,ID,1690331519
568,sisimiut,66.9395,-53.6735,6.400000000000034,86,51,3.59,GL,1690331519
569,key biscayne,25.6937,-80.1628,31.680000000000007,73,63,1.34,US,1690331365
570,kardla,58.9978,22.7492,16.700000000000045,90,52,2.64,EE,1690331519
571,escarcega,18.6089,-90.7454,29.04000000000002,60,100,2.68,MX,1690331519
572,manjhanpur,25.5333,81.3833,30.379999999999995,67,99,3.97,IN,1690331519
573,graaff-reinet,-32.2522,24.5308,12.980000000000018,24,0,3.55,ZA,1690331519
574,kapit,2.0167,112.9333,28.25,71,72,0.48,MY,1690331519
575,jala,21.0833,-104.4333,20.920000000000016,96,100,1.61,MX,1690331519
576,nalut,30.3333,10.85,31.860000000000014,13,0,2.88,LY,1690331519
577,cabanas,22.9758,-82.9219,27.629999999999995,84,44,4.49,CU,1690331519
578,pierre,44.3683,-100.351,39.51000000000005,24,0,7.2,US,1690331520
579,bouza,14.4229,6.0428,30.680000000000007,54,100,4.5,NE,1690331520
580,fang,19.9169,99.2145,24.5,92,100,0.99,TH,1690331520
581,bol,13.4586,14.7147,27.78000000000003,69,76,5.86,TD,1690331520
582,as sulaymaniyah,35.5611,45.4375,24.24000000000001,23,0,3.6,IQ,1690331520
583,howard springs,-12.497,131.047,20.460000000000036,36,20,4.23,AU,1690331520
584,kyaiklat,16.4333,95.7333,26.74000000000001,87,95,2.64,MM,1690331520
585,nacala,-14.5428,40.6728,19.640000000000043,82,12,5.26,MZ,1690331520
586,tarawa,1.419,172.984,26.05000000000001,89,75,2.06,KI,1690331520
587,calatayud,41.3535,-1.6432,15.400000000000034,71,0,1.29,ES,1690331520
588,birao,10.2849,22.7882,21.210000000000036,93,100,4.06,CF,1690331520
589,sultanah,24.4926,39.5857,33.25,12,0,1.03,SA,1690331520
590,farasan,16.7022,42.1183,30.960000000000036,83,99,5.75,SA,1690331520
591,neftegorsk,52.802,51.166,17.04000000000002,73,80,2.04,RU,1690331521
592,trosa,58.8962,17.5481,13.53000000000003,88,8,3.6,SE,1690331521
593,samoylovka,51.184,43.7081,17.680000000000007,63,91,2.63,RU,1690331521
594,kankauli,16.2667,73.7,23.700000000000045,98,100,2.5,IN,1690331521
595,kuala belait,4.5833,114.1833,28.090000000000032,78,10,2.68,BN,1690331521
596,kovel,51.2153,24.7087,16.460000000000036,95,98,5.17,UA,1690331521
597,dryden,49.7833,-92.7503,18.160000000000025,88,100,4.63,CA,1690331521
598,lesogorsk,56.0458,99.5136,16.49000000000001,93,100,1.58,RU,1690331522
599,ghadamis,30.1337,9.5007,35.73000000000002,10,0,3.94,LY,1690331522
600,kingaroy,-26.5333,151.8333,17.660000000000025,47,5,5.04,AU,1690331522
601,sept-iles,50.2001,-66.3821,18.920000000000016,94,40,2.57,CA,1690331413
602,taltal,-25.4,-70.4833,15.890000000000043,76,5,2.17,CL,1690331522
603,yunyang,33.4474,112.7142,28.640000000000043,68,31,3.28,CN,1690331522
604,zhuhai,22.2769,113.5678,31.879999999999995,74,0,1.54,CN,1690331522
605,val-d'or,48.1002,-77.7828,22.05000000000001,53,20,1.54,CA,1690331363
